school_name,school_type,grades_served,address,city,state,zip_code,website_url,phone,latitude,longitude,setting,enrollment_count,student_teacher_ratio,enrollment_prek,enrollment_k,enrollment_1,enrollment_2,enrollment_3,enrollment_4,enrollment_5,enrollment_6,enrollment_7,enrollment_8,enrollment_9,enrollment_10,enrollment_11,enrollment_12,district,district_id,math_proficiency_pct,reading_proficiency_pct,state_percentile_rank,disadvantaged_pct,minority_enrollment_pct,white_pct,black_pct,hispanic_pct,asian_pct,multiracial_pct,full_time_teachers,certified_teachers_pct,counselors_count,source,source_url
Simpson Elementary School,Public,PK-5,4525 E Jones Bridge Rd,Peachtree Corners,GA,30092,,7704172400,33.998473,-84.229275,large suburb,926,12,30.0,152.0,137.0,156.0,142.0,159.0,150.0,,,,,,,,Gwinnett County School District,106134.0,83.0,88.0,99.36,19.0,39.0,61.0,13.6,9.9,9.4,5.8,75,99.0,2.0,US News,https://www.usnews.com/education/k12/georgia/simpson-elementary-school-223330
Level Creek Elementary School,Public,PK-5,4488 Tench Rd,Suwanee,GA,30024,,7709047950,34.0708,-84.0712,large suburb,1077,15,5.0,117.0,135.0,194.0,196.0,215.0,215.0,,,,,,,,Gwinnett County School District,106134.0,86.0,85.0,99.28,16.0,59.0,41.3,9.2,9.6,33.1,6.6,74,98.0,2.0,US News,https://www.usnews.com/education/k12/georgia/level-creek-elementary-school-218127
Riverside Elementary School,Public,PK-5,5445 Settles Bridge Rd,Suwanee,GA,30024,,6784821000,34.0937,-84.097,large suburb,963,14,7.0,121.0,128.0,155.0,186.0,163.0,203.0,,,,,,,,Gwinnett County School District,106134.0,83.0,81.0,98.15,23.0,65.0,35.1,10.5,8.4,40.7,5.2,67,98.0,1.0,US News,https://www.usnews.com/education/k12/georgia/riverside-elementary-school-222311
Puckett's Mill Elementary School,Public,PK-5,2442 S Pucketts Mill Rd,Dacula,GA,30019,http://puckettsmill.org/home.html,6787655110,34.064813,-83.932499,large suburb,749,13,10.0,105.0,112.0,112.0,129.0,151.0,130.0,,,,,,,,Gwinnett County School District,106134.0,80.0,75.0,97.18,32.0,52.0,47.5,18.3,13.6,13.0,7.3,59,98.0,1.0,US News,https://www.usnews.com/education/k12/georgia/puckett-s-mill-elementary-school-221854
Roberts Elementary School,Public,PK-5,251 Highway 23 Ne,Suwanee,GA,30024,,6787452370,34.072591,-84.051091,large suburb,1003,15,20.0,117.0,159.0,122.0,182.0,187.0,216.0,,,,,,,,Gwinnett County School District,106134.0,81.0,74.0,97.1,28.0,73.0,26.6,14.0,8.4,44.6,6.3,66,96.0,1.0,US News,https://www.usnews.com/education/k12/georgia/roberts-elementary-school-222386
White Oak Elementary School,Public,PK-5,6442 Suwanee Dam Rd,Sugar Hill,GA,30518,,6785465550,34.146162,-84.066336,large suburb,709,12,16.0,94.0,121.0,115.0,115.0,112.0,136.0,,,,,,,,Gwinnett County School District,106134.0,72.0,73.0,95.74,36.0,53.0,47.4,15.9,19.6,10.4,6.2,60,97.0,1.0,US News,https://www.usnews.com/education/k12/georgia/white-oak-elementary-school-225553
Suwanee Elementary School,Public,PK-5,3875 Smithtown Rd,Suwanee,GA,30024,,7709455763,34.0487,-84.0548,large suburb,651,13,16.0,77.0,90.0,109.0,115.0,123.0,121.0,,,,,,,,Gwinnett County School District,106134.0,72.0,74.0,95.49,33.0,71.0,29.0,13.8,11.8,37.0,8.0,51,100.0,1.0,US News,https://www.usnews.com/education/k12/georgia/suwanee-elementary-school-224088
Gwin Oaks Elementary School,Public,PK-5,400 Gwin Oaks Dr,Lawrenceville,GA,30044,,7709723110,33.8956,-84.074,large suburb,1056,14,26.0,143.0,170.0,167.0,179.0,187.0,184.0,,,,,,,,Gwinnett County School District,106134.0,74.0,69.0,95.17,48.0,76.0,24.0,24.1,22.0,23.2,6.3,76,100.0,2.0,US News,https://www.usnews.com/education/k12/georgia/gwin-oaks-elementary-school-215725
Ivy Creek Elementary School,Public,PK-5,3443 Ridge Rd,Buford,GA,30519,,6787143655,34.0971,-83.9364,large suburb,1559,15,32.0,213.0,229.0,271.0,272.0,282.0,260.0,,,,,,,,Gwinnett County School District,106134.0,75.0,68.0,95.09,42.0,69.0,30.7,19.9,20.3,23.2,5.5,104,100.0,2.0,US News,https://www.usnews.com/education/k12/georgia/ivy-creek-elementary-school-216801
Parsons Elementary School,Public,PK-5,1615 Old Peachtree Rd Nw,Suwanee,GA,30024,,6789573050,34.0137,-84.091,large suburb,874,13,38.0,124.0,141.0,143.0,155.0,146.0,127.0,,,,,,,,Gwinnett County School District,106134.0,70.0,70.0,94.53,40.0,87.0,12.9,22.5,12.5,46.2,5.6,70,100.0,1.0,US News,https://www.usnews.com/education/k12/georgia/parsons-elementary-school-220802
Brookwood Elementary School,Public,PK-5,1330 Holly Brook Rd,Snellville,GA,30078,http://brookwoodelementary.com/home.htm,7707364360,33.8806,-84.0421,large suburb,1477,14,2.0,211.0,223.0,242.0,232.0,257.0,310.0,,,,,,,,Gwinnett County School District,106134.0,70.0,67.0,94.05,47.0,78.0,21.9,34.6,17.3,19.3,6.2,102,100.0,2.0,US News,https://www.usnews.com/education/k12/georgia/brookwood-elementary-school-211756
Dyer Elementary School,Public,PK-5,1707 Hurricane Shoals Rd,Dacula,GA,30019,,7709636214,33.9968,-83.9373,large suburb,963,13,44.0,128.0,142.0,147.0,144.0,167.0,191.0,,,,,,,,Gwinnett County School District,106134.0,72.0,65.0,93.97,60.0,78.0,21.6,36.8,23.9,11.4,6.0,72,100.0,1.0,US News,https://www.usnews.com/education/k12/georgia/dyer-elementary-school-213866
Craig Elementary School,Public,PK-5,1075 Rocky Rd,Lawrenceville,GA,30044,,7709785560,33.9025,-84.0182,large suburb,1084,13,36.0,133.0,141.0,169.0,199.0,201.0,205.0,,,,,,,,Gwinnett County School District,106134.0,68.0,66.0,93.48,48.0,73.0,26.7,30.4,20.5,16.0,5.8,84,99.0,0.0,US News,https://www.usnews.com/education/k12/georgia/craig-elementary-school-213152
Head Elementary School,Public,PK-5,1801 Hewatt Rd Sw,Lilburn,GA,30047,,7709728050,33.8543,-84.0649,large suburb,738,13,10.0,95.0,124.0,109.0,142.0,121.0,137.0,,,,,,,,Gwinnett County School District,106134.0,72.0,62.0,93.4,48.0,72.0,28.3,26.8,19.8,16.5,8.0,56,100.0,1.0,US News,https://www.usnews.com/education/k12/georgia/head-elementary-school-216034
Pharr Elementary School,Public,PK-5,1500 North Rd,Snellville,GA,30078,,7709850244,33.8906,-84.0055,large suburb,807,12,52.0,114.0,124.0,143.0,127.0,116.0,131.0,,,,,,,,Gwinnett County School District,106134.0,65.0,65.0,92.36,66.0,85.0,14.9,39.0,31.2,10.3,4.1,68,98.0,1.0,US News,https://www.usnews.com/education/k12/georgia/pharr-elementary-school-220988
Trip Elementary School,Public,PK-5,841 Cooper Rd,Grayson,GA,30017,http://www.gwinnett.k12.ga.us/TripES/,6786393850,33.872227,-83.960764,large suburb,1415,15,5.0,182.0,214.0,255.0,251.0,247.0,261.0,,,,,,,,Gwinnett County School District,106134.0,66.0,64.0,92.28,62.0,90.0,10.4,61.1,14.8,7.1,6.0,96,99.0,1.0,US News,https://www.usnews.com/education/k12/georgia/trip-elementary-school-224524
Camp Creek Elementary School,Public,PK-5,958 Cole Rd Sw,Lilburn,GA,30047,,7709211626,33.8612,-84.1163,large suburb,1447,14,45.0,252.0,225.0,218.0,227.0,228.0,252.0,,,,,,,,Gwinnett County School District,106134.0,67.0,63.0,92.12,49.0,70.0,30.1,22.0,23.1,19.1,5.3,100,100.0,2.0,US News,https://www.usnews.com/education/k12/georgia/camp-creek-elementary-school-212034
Freeman's Mill Elementary School,Public,PK-5,2303 Old Peachtree Rd,Lawrenceville,GA,30043,,6783778955,34.0305,-83.9389,large suburb,1019,13,4.0,137.0,168.0,157.0,201.0,173.0,179.0,,,,,,,,Gwinnett County School District,106134.0,67.0,63.0,92.12,56.0,73.0,27.3,27.6,22.0,16.0,7.0,76,100.0,1.0,US News,https://www.usnews.com/education/k12/georgia/freeman-s-mill-elementary-school-215033
Fort Daniel Elementary School,Public,PK-5,1725 Auburn Rd,Dacula,GA,30019,,7709327400,34.0446,-83.924,large suburb,697,12,31.0,97.0,119.0,112.0,98.0,112.0,128.0,,,,,,,,Gwinnett County School District,106134.0,66.0,61.0,91.23,51.0,71.0,28.8,23.4,24.2,14.8,8.8,59,100.0,1.0,US News,https://www.usnews.com/education/k12/georgia/fort-daniel-elementary-school-214846
Mountain Park Elementary School,Public,PK-5,1500 Pounds Rd Sw,Lilburn,GA,30047,,7709212224,33.8402,-84.1151,large suburb,628,13,25.0,94.0,110.0,94.0,96.0,98.0,111.0,,,,,,,,Gwinnett County School District,106134.0,65.0,57.0,89.62,67.0,79.0,21.3,27.2,25.2,18.8,6.8,50,100.0,1.0,US News,https://www.usnews.com/education/k12/georgia/mountain-park-elementary-school-219677
Burnette Elementary School,Public,PK-5,3221 Mcginnis Ferry Road,Suwanee,GA,30024,,6785462170,34.0316,-84.0622,large suburb,700,13,16.0,99.0,110.0,110.0,128.0,118.0,119.0,,,,,,,,Gwinnett County School District,106134.0,63.0,60.0,89.54,46.0,81.0,19.1,29.1,20.0,24.0,7.4,53,100.0,1.0,US News,https://www.usnews.com/education/k12/georgia/burnette-elementary-school-211885
Woodward Mill Elementary School,Public,PK-5,2020 Buford Dr,Lawrenceville,GA,30043,,6784077590,34.025192,-83.988073,large suburb,1041,13,31.0,163.0,171.0,166.0,170.0,175.0,165.0,,,,,,,,Gwinnett County School District,106134.0,62.0,56.0,88.66,61.0,74.0,26.1,22.5,32.9,12.3,6.1,78,100.0,1.0,US News,https://www.usnews.com/education/k12/georgia/woodward-mill-elementary-school-226022
Duncan Creek Elementary,Public,PK-5,4500 Braselton Hwy,Hoschton,GA,30548,,6787145800,34.0758,-83.8716,large suburb,1569,16,14.0,221.0,247.0,243.0,282.0,263.0,299.0,,,,,,,,Gwinnett County School District,106134.0,62.0,63.0,88.42,44.0,65.0,34.9,24.2,15.4,20.0,5.2,101,99.0,2.0,US News,https://www.usnews.com/education/k12/georgia/duncan-creek-elementary-213829
Walnut Grove Elementary School,Public,PK-5,75 Taylor Rd,Suwanee,GA,30024,,7705136892,34.0178,-84.0229,large suburb,810,12,36.0,107.0,120.0,147.0,132.0,130.0,138.0,,,,,,,,Gwinnett County School District,106134.0,63.0,54.0,88.33,57.0,77.0,23.5,24.9,32.1,12.6,6.9,65,98.0,1.0,US News,https://www.usnews.com/education/k12/georgia/walnut-grove-elementary-school-225016
Taylor Elementary School,Public,PK-5,600 Taylor School Dr,Lawrenceville,GA,30043,,7703384680,34.0104,-83.9958,large suburb,866,12,6.0,113.0,155.0,151.0,145.0,145.0,151.0,,,,,,,,Gwinnett County School District,106134.0,54.0,61.0,88.09,63.0,79.0,20.6,30.3,31.3,9.9,7.4,70,100.0,1.0,US News,https://www.usnews.com/education/k12/georgia/taylor-elementary-school-224198
Mulberry Elementary School,Public,PK-5,442 E Union Grove Cir,Auburn,GA,30011,,6782267460,34.0316,-83.8633,fringe rural,753,13,46.0,108.0,120.0,100.0,122.0,124.0,133.0,,,,,,,,Gwinnett County School District,106134.0,58.0,56.0,87.69,55.0,73.0,27.5,37.3,22.2,6.4,6.5,58,98.0,1.0,US News,https://www.usnews.com/education/k12/georgia/mulberry-elementary-school-219733
Rock Springs Elementary School,Public,PK-5,888 Rock Springs Rd,Lawrenceville,GA,30043,,7709327474,34.0499,-84.0068,large suburb,765,12,18.0,130.0,135.0,122.0,109.0,135.0,116.0,,,,,,,,Gwinnett County School District,106134.0,60.0,54.0,87.61,61.0,82.0,18.4,31.5,30.5,12.5,6.5,63,98.0,1.0,US News,https://www.usnews.com/education/k12/georgia/rock-springs-elementary-school-222435
Grayson Elementary School,Public,PK-5,460 Grayson Pkwy,Grayson,GA,30017,,7709637189,33.8919,-83.957,large suburb,1051,13,2.0,178.0,167.0,153.0,160.0,212.0,179.0,,,,,,,,Gwinnett County School District,106134.0,57.0,56.0,87.29,57.0,84.0,16.4,51.7,17.5,8.5,5.6,79,100.0,1.0,US News,https://www.usnews.com/education/k12/georgia/grayson-elementary-school-215559
Patrick Elementary School,Public,PK-5,2707 Kilgore Rd,Buford,GA,30519,,6787655260,34.089114,-83.957553,large suburb,962,14,19.0,136.0,146.0,152.0,174.0,172.0,163.0,,,,,,,,Gwinnett County School District,106134.0,60.0,54.0,87.21,57.0,83.0,17.3,32.2,23.1,21.4,5.9,69,100.0,1.0,US News,https://www.usnews.com/education/k12/georgia/patrick-elementary-school-220827
Starling Elementary School,Public,PK-5,1725 Grayson Hwy,Grayson,GA,30017,,6783446100,33.902609,-83.965815,large suburb,1249,15,40.0,172.0,193.0,229.0,195.0,221.0,199.0,,,,,,,,Gwinnett County School District,106134.0,55.0,56.0,86.97,59.0,86.0,14.3,49.3,19.3,10.7,5.7,85,99.0,2.0,US News,https://www.usnews.com/education/k12/georgia/starling-elementary-school-223803
Sugar Hill Elementary School,Public,PK-5,939 Level Creek Rd,Sugar Hill,GA,30518,,7709455735,34.0998,-84.04,large suburb,1145,13,16.0,165.0,172.0,191.0,193.0,211.0,197.0,,,,,,,,Gwinnett County School District,106134.0,61.0,53.0,86.65,53.0,70.0,30.1,20.3,26.7,16.2,6.4,90,99.0,2.0,US News,https://www.usnews.com/education/k12/georgia/sugar-hill-elementary-school-223962
Partee Elementary School,Public,PK-5,4350 Campbell Rd,Snellville,GA,30039,,7709826920,33.7939,-84.0535,large suburb,777,13,20.0,122.0,125.0,124.0,121.0,138.0,127.0,,,,,,,,Gwinnett County School District,106134.0,58.0,52.0,86.56,80.0,97.0,3.0,66.0,19.3,7.1,4.2,61,95.0,1.0,US News,https://www.usnews.com/education/k12/georgia/partee-elementary-school-220804
Mason Elementary School,Public,PK-5,3030 Bunten Rd,Duluth,GA,30096,,7702323370,33.9963,-84.1189,large suburb,926,14,3.0,135.0,152.0,151.0,173.0,161.0,151.0,,,,,,,,Gwinnett County School District,106134.0,62.0,55.0,86.4,48.0,88.0,11.9,29.9,17.0,35.5,5.1,68,98.0,2.0,US News,https://www.usnews.com/education/k12/georgia/mason-elementary-school-218943
Cooper Elementary School,Public,PK-5,555 Ozora Rd,Loganville,GA,30052,,7705547050,33.8916,-83.9135,large suburb,1509,14,21.0,207.0,224.0,244.0,280.0,266.0,267.0,,,,,,,,Gwinnett County School District,106134.0,55.0,54.0,86.16,58.0,82.0,18.1,58.6,14.0,3.2,5.8,111,98.0,2.0,US News,https://www.usnews.com/education/k12/georgia/cooper-elementary-school-213012
Harris Elementary School,Public,PK-5,3123 Claiborne Dr,Duluth,GA,30096,,7704762241,33.9871,-84.1342,large suburb,612,11,3.0,96.0,83.0,126.0,112.0,95.0,97.0,,,,,,,,Gwinnett County School District,106134.0,52.0,55.0,85.68,75.0,88.0,12.3,19.8,47.7,15.8,4.1,57,100.0,1.0,US News,https://www.usnews.com/education/k12/georgia/harris-elementary-school-215909
Knight Elementary School,Public,PK-5,401 N River Dr Sw,Lilburn,GA,30047,,7709212400,33.8857,-84.1002,large suburb,893,13,12.0,128.0,142.0,143.0,156.0,146.0,166.0,,,,,,,,Gwinnett County School District,106134.0,55.0,51.0,85.04,74.0,85.0,14.9,17.1,47.3,15.9,4.7,69,95.0,1.0,US News,https://www.usnews.com/education/k12/georgia/knight-elementary-school-217649
Chattahoochee Elementary School,Public,PK-5,2930 Albion Farm Rd,Duluth,GA,30097,,7704979907,34.0183,-84.1475,large suburb,1119,13,30.0,178.0,152.0,177.0,200.0,203.0,179.0,,,,,,,,Gwinnett County School District,106134.0,55.0,53.0,83.19,50.0,80.0,20.4,30.2,23.2,19.4,6.3,86,99.0,3.0,US News,https://www.usnews.com/education/k12/georgia/chattahoochee-elementary-school-212504
Berkeley Lake Elementary School,Public,PK-5,4300 S Berkeley Lake Rd Nw,Duluth,GA,30096,,7704460947,33.977706,-84.186256,large suburb,808,12,38.0,106.0,118.0,148.0,141.0,131.0,126.0,,,,,,,,Gwinnett County School District,106134.0,51.0,48.0,79.08,54.0,77.0,22.5,17.5,42.9,10.9,5.8,65,100.0,2.0,US News,https://www.usnews.com/education/k12/georgia/berkeley-lake-elementary-school-211235
Jackson Elementary School,Public,PK-5,1970 Sever Rd,Lawrenceville,GA,30043,,7706824200,33.9883,-84.0614,large suburb,1459,13,11.0,211.0,213.0,236.0,253.0,268.0,267.0,,,,,,,,Gwinnett County School District,106134.0,54.0,44.0,78.92,73.0,88.0,12.3,28.2,37.8,16.7,4.7,109,100.0,3.0,US News,https://www.usnews.com/education/k12/georgia/jackson-elementary-school-216903
Rosebud Elementary School,Public,PK-5,4151 Rosebud Rd,Loganville,GA,30052,http://www.rosebudes.org/home.html,6786393800,33.818646,-83.964781,large suburb,997,12,17.0,152.0,147.0,168.0,170.0,178.0,165.0,,,,,,,,Gwinnett County School District,106134.0,45.0,42.0,76.43,84.0,96.0,4.3,69.7,18.1,3.2,4.6,82,96.0,1.0,US News,https://www.usnews.com/education/k12/georgia/rosebud-elementary-school-222599
Sycamore Elementary School,Public,PK-5,5695 Sycamore Rd,Sugar Hill,GA,30518,,6787145770,34.1256,-84.0448,large suburb,768,11,31.0,110.0,119.0,114.0,135.0,116.0,143.0,,,,,,,,Gwinnett County School District,106134.0,49.0,43.0,76.11,70.0,74.0,25.9,18.1,43.2,6.9,5.7,69,97.0,1.0,US News,https://www.usnews.com/education/k12/georgia/sycamore-elementary-school-224112
Lovin Elementary School,Public,PK-5,1705 New Hope Rd,Lawrenceville,GA,30045,,6785186940,33.923152,-83.922052,large suburb,891,12,39.0,123.0,142.0,129.0,170.0,144.0,144.0,,,,,,,,Gwinnett County School District,106134.0,46.0,40.0,74.5,73.0,89.0,11.0,56.2,25.0,3.1,4.3,72,99.0,1.0,US News,https://www.usnews.com/education/k12/georgia/lovin-elementary-school-218486
Alcova Elementary School,Public,PK-5,770 Ewing Chapel Rd,Dacula,GA,30019,http://www.alcovaes.com/home,6783768500,33.9684,-83.8989,large suburb,1459,14,8.0,202.0,223.0,249.0,240.0,258.0,279.0,,,,,,,,Gwinnett County School District,106134.0,43.0,44.0,74.18,72.0,91.0,9.3,53.4,25.8,6.4,4.7,104,99.0,3.0,US News,https://www.usnews.com/education/k12/georgia/alcova-elementary-school-210403
Arcado Elementary School,Public,PK-5,5150 Arcado Rd Sw,Lilburn,GA,30047,,7709252100,33.872,-84.1398,large suburb,933,13,4.0,121.0,169.0,153.0,165.0,156.0,165.0,,,,,,,,Gwinnett County School District,106134.0,50.0,48.0,73.13,65.0,88.0,11.6,23.3,32.4,29.0,2.3,71,100.0,1.0,US News,https://www.usnews.com/education/k12/georgia/arcado-elementary-school-210651
Harmony Elementary School,Public,PK-5,3946 S Bogan Rd,Buford,GA,30519,,7709457272,34.0973,-83.9796,large suburb,627,12,5.0,106.0,92.0,87.0,108.0,108.0,121.0,,,,,,,,Gwinnett County School District,106134.0,58.0,50.0,72.0,43.0,66.0,34.0,21.9,15.8,21.4,6.7,52,100.0,1.0,US News,https://www.usnews.com/education/k12/georgia/harmony-elementary-school-215879
Harbins Elementary School,Public,PK-5,3550 New Hope Rd,Dacula,GA,30019,,7706824270,33.9439,-83.8574,fringe rural,1351,14,10.0,175.0,195.0,235.0,223.0,254.0,259.0,,,,,,,,Gwinnett County School District,106134.0,46.0,48.0,71.84,60.0,76.0,24.0,45.2,21.3,3.5,5.7,100,99.0,2.0,US News,https://www.usnews.com/education/k12/georgia/harbins-elementary-school-215848
Shiloh Elementary School,Public,PK-5,2400 Ross Rd,Snellville,GA,30039,,7709856883,33.8284,-84.0758,large suburb,713,11,16.0,121.0,121.0,99.0,117.0,112.0,127.0,,,,,,,,Gwinnett County School District,106134.0,42.0,38.0,71.44,86.0,93.0,6.9,52.3,25.2,9.7,5.6,62,95.0,1.0,US News,https://www.usnews.com/education/k12/georgia/shiloh-elementary-school-223249
Annistown Elementary School,Public,PK-5,3150 Spain Rd,Snellville,GA,30039,http://www.annistownes.com/home.html,7709792950,33.8032,-84.0686,large suburb,723,12,0.0,102.0,121.0,122.0,123.0,120.0,135.0,,,,,,,,Gwinnett County School District,106134.0,37.0,41.0,70.15,81.0,94.0,5.7,52.0,32.1,4.8,5.4,58,96.0,1.0,US News,https://www.usnews.com/education/k12/georgia/annistown-elementary-school-210606
Corley Elementary School,Public,PK-5,1331 Pleasant Hill Rd,Lawrenceville,GA,30044,,6789245330,33.9364,-84.1231,large suburb,1093,12,29.0,167.0,181.0,187.0,175.0,159.0,195.0,,,,,,,,Gwinnett County School District,106134.0,40.0,32.0,69.19,90.0,98.0,2.5,17.1,74.7,4.0,1.5,90,96.0,2.0,US News,https://www.usnews.com/education/k12/georgia/corley-elementary-school-213051
Gwinnett Online Campus,Public,PK-12,713 Hi Hope Rd,Lawrenceville,GA,30043,,7703268082,33.984154,-83.97177,large suburb,1928,14,0.0,28.0,46.0,46.0,58.0,82.0,77.0,117.0,175.0,174.0,,,,,Gwinnett County School District,106134.0,35.0,63.0,68.79,48.0,75.0,24.6,36.9,25.4,7.5,5.2,134,100.0,4.0,US News,https://www.usnews.com/education/k12/georgia/gwinnett-online-campus-141948
Jenkins Elementary School,Public,PK-5,12 Village Way,Lawrenceville,GA,30046,,6784078900,33.960083,-83.966769,large suburb,745,13,6.0,111.0,110.0,134.0,141.0,124.0,119.0,,,,,,,,Gwinnett County School District,106134.0,36.0,37.0,68.38,87.0,93.0,6.7,44.6,41.5,2.4,4.7,57,96.0,1.0,US News,https://www.usnews.com/education/k12/georgia/jenkins-elementary-school-217077
New Life Academy of Excellence,Charter,PK-8,4725 River Green Pkwy,Duluth,GA,30096,,6787209870,34.01329,-84.170711,large suburb,603,17,0.0,70.0,88.0,87.0,77.0,81.0,77.0,50.0,40.0,33.0,,,,,Gwinnett County School District,106134.0,40.0,44.0,67.82,66.0,96.0,3.8,63.3,27.2,1.8,3.5,35,100.0,,US News,https://www.usnews.com/education/k12/georgia/new-life-academy-of-excellence-233241
Bethesda Elementary School,Public,PK-5,525 Bethesda School Rd,Lawrenceville,GA,30044,http://www.gcpsk12.org/BethesdaES,7709212000,33.9254,-84.086,large suburb,1105,13,10.0,167.0,187.0,202.0,166.0,187.0,186.0,,,,,,,,Gwinnett County School District,106134.0,42.0,33.0,65.57,84.0,96.0,4.3,18.4,65.0,9.0,3.0,86,98.0,3.0,US News,https://www.usnews.com/education/k12/georgia/bethesda-elementary-school-211280
Kanoheda Elementary School,Public,PK-5,1025 Herrington Rd,Lawrenceville,GA,30044,,7706824221,33.9425,-84.0828,large suburb,850,11,13.0,148.0,151.0,142.0,144.0,128.0,124.0,,,,,,,,Gwinnett County School District,106134.0,36.0,33.0,64.28,86.0,96.0,3.5,22.0,67.5,4.9,2.0,76,99.0,2.0,US News,https://www.usnews.com/education/k12/georgia/kanoheda-elementary-school-217399
Dacula Elementary School,Public,PK-5,2500 Fence Rd,Dacula,GA,30019,,7709637174,33.9998,-83.9034,large suburb,1183,13,32.0,161.0,162.0,174.0,204.0,230.0,220.0,,,,,,,,Gwinnett County School District,106134.0,45.0,41.0,63.88,66.0,76.0,23.9,33.2,29.1,5.7,7.8,90,97.0,2.0,US News,https://www.usnews.com/education/k12/georgia/dacula-elementary-school-213340
Lilburn Elementary School,Public,PK-5,531 Lilburn School Rd Nw,Lilburn,GA,30047,,7709217707,33.8919,-84.153,large suburb,1294,12,1.0,193.0,212.0,223.0,223.0,209.0,233.0,,,,,,,,Gwinnett County School District,106134.0,38.0,32.0,63.64,91.0,97.0,2.9,9.9,73.3,12.5,1.2,104,99.0,3.0,US News,https://www.usnews.com/education/k12/georgia/lilburn-elementary-school-218203
Chesney Elementary School,Public,PK-5,3878 Old Norcross Rd,Duluth,GA,30096,,6785422300,33.9595,-84.1457,large suburb,1066,13,8.0,178.0,205.0,161.0,190.0,175.0,149.0,,,,,,,,Gwinnett County School District,106134.0,42.0,30.0,63.15,82.0,95.0,4.6,24.0,61.4,6.7,3.0,80,96.0,1.0,US News,https://www.usnews.com/education/k12/georgia/chesney-elementary-school-212547
Mckendree Elementary School,Public,PK-5,1600 Riverside Pkwy,Lawrenceville,GA,30043,,6783778933,33.9776,-84.0269,large suburb,998,12,49.0,147.0,162.0,166.0,142.0,159.0,173.0,,,,,,,,Gwinnett County School District,106134.0,40.0,37.0,61.3,75.0,88.0,12.3,39.4,34.7,7.3,6.0,86,97.0,2.0,US News,https://www.usnews.com/education/k12/georgia/mckendree-elementary-school-219083
Norton Elementary School,Public,PK-5,3050 Xavier Ray Ct,Snellville,GA,30039,,7709851933,33.8099,-84.0094,large suburb,1005,15,52.0,175.0,160.0,147.0,146.0,164.0,161.0,,,,,,,,Gwinnett County School District,106134.0,36.0,33.0,60.26,87.0,95.0,4.7,64.4,22.1,2.5,5.7,69,98.0,2.0,US News,https://www.usnews.com/education/k12/georgia/norton-elementary-school-220238
Cedar Hill Elementary School,Public,PK-5,3615 Sugarloaf Pkwy,Lawrenceville,GA,30044,,7709625015,33.9273,-84.0223,large suburb,867,12,4.0,126.0,132.0,163.0,141.0,159.0,142.0,,,,,,,,Gwinnett County School District,106134.0,37.0,33.0,58.81,84.0,93.0,7.4,33.9,46.1,8.5,3.2,71,98.0,2.0,US News,https://www.usnews.com/education/k12/georgia/cedar-hill-elementary-school-212278
Peachtree Elementary School,Public,PK-5,5995 Crooked Creek Rd,Peachtree Corners,GA,30092,,7704488710,33.963282,-84.236674,large suburb,677,12,1.0,106.0,110.0,123.0,106.0,113.0,118.0,,,,,,,,Gwinnett County School District,106134.0,34.0,35.0,58.73,79.0,90.0,9.9,32.8,51.1,1.6,4.4,57,100.0,1.0,US News,https://www.usnews.com/education/k12/georgia/peachtree-elementary-school-220876
Alford Elementary,Public,PK-5,2625 Lawrenceville Hwy,Lawrenceville,GA,30044,,6789245300,33.925424,-84.070805,large suburb,822,12,24.0,98.0,125.0,150.0,129.0,143.0,153.0,,,,,,,,Gwinnett County School District,106134.0,25.0,29.0,28.96,85.0,93.0,7.4,21.8,58.9,9.9,2.1,72,100.0,2.0,US News,https://www.usnews.com/education/k12/georgia/alford-elementary-210425
Anderson-Livsey Elementary School,Public,PK-5,4521 Centerville Hwy,Snellville,GA,30039,,6783442082,33.7755,-84.0501,large suburb,676,13,43.0,92.0,99.0,105.0,110.0,115.0,112.0,,,,,,,,Gwinnett County School District,106134.0,39.0,26.0,53.9,84.0,97.0,3.1,59.9,27.8,1.3,7.5,54,98.0,1.0,US News,https://www.usnews.com/education/k12/georgia/anderson-livsey-elementary-school-210550
Baggett Elementary School,Public,PK-5,2136 Old Norcross Rd,Lawrenceville,GA,30044,,6783016100,33.949107,-84.066289,large suburb,994,12,34.0,131.0,161.0,179.0,167.0,171.0,151.0,,,,,,,,Gwinnett County School District,106134.0,32.0,22.0,37.65,87.0,96.0,4.0,26.3,60.9,5.6,3.0,84,96.0,2.0,US News,https://www.usnews.com/education/k12/georgia/baggett-elementary-school-210875
Baldwin Elementary,Public,PK-5,123 Price Pl,Norcross,GA,30071,,6782255500,33.938851,-84.204352,large suburb,944,13,11.0,152.0,161.0,165.0,173.0,137.0,145.0,,,,,,,,Gwinnett County School District,106134.0,34.0,25.0,44.49,84.0,98.0,2.4,8.2,84.2,3.5,1.6,75,100.0,2.0,US News,https://www.usnews.com/education/k12/georgia/baldwin-elementary-210897
Beaver Ridge Elementary School,Public,PK-5,1978 Beaver Ruin Rd,Norcross,GA,30071,http://www.breschool.com/home.html,7704476307,33.9346,-84.1732,large suburb,981,13,42.0,180.0,149.0,155.0,161.0,142.0,152.0,,,,,,,,Gwinnett County School District,106134.0,28.0,24.0,31.05,85.0,98.0,2.1,19.3,72.3,4.1,2.1,75,99.0,2.0,US News,https://www.usnews.com/education/k12/georgia/beaver-ridge-elementary-school-211083
Benefield Elementary School,Public,PK-5,1221 Old Norcross Rd,Lawrenceville,GA,30046,http://www.benefield.org/home.html,7709623771,33.954593,-84.029859,large suburb,1248,15,69.0,186.0,209.0,192.0,182.0,215.0,195.0,,,,,,,,Gwinnett County School District,106134.0,38.0,29.0,54.3,82.0,94.0,6.4,26.4,57.2,6.7,2.9,85,96.0,2.0,US News,https://www.usnews.com/education/k12/georgia/benefield-elementary-school-211195
Britt Elementary School,Public,PK-5,2503 Skyland Dr,Snellville,GA,30078,,7709724500,33.8539,-84.0104,large suburb,598,12,1.0,85.0,101.0,101.0,113.0,90.0,107.0,,,,,,,,Gwinnett County School District,106134.0,30.0,35.0,51.33,81.0,93.0,7.2,52.8,30.3,4.5,4.7,49,100.0,1.0,US News,https://www.usnews.com/education/k12/georgia/britt-elementary-school-211681
Centerville Elementary School,Public,PK-5,3115 Scenic Hwy S,Snellville,GA,30039,,7709722220,33.8231,-84.036,large suburb,658,12,0.0,88.0,104.0,124.0,103.0,128.0,111.0,,,,,,,,Gwinnett County School District,106134.0,35.0,30.0,48.59,86.0,92.0,8.2,52.0,28.1,5.6,5.2,57,96.0,1.0,US News,https://www.usnews.com/education/k12/georgia/centerville-elementary-school-212333
Ferguson Elementary School,Public,PK-5,1755 Centerview Dr,Duluth,GA,30096,,6782455450,33.950825,-84.121763,large suburb,838,11,27.0,114.0,147.0,146.0,131.0,133.0,140.0,,,,,,,,Gwinnett County School District,106134.0,28.0,23.0,28.56,85.0,97.0,3.3,29.6,59.3,4.8,2.6,74,100.0,2.0,US News,https://www.usnews.com/education/k12/georgia/ferguson-elementary-school-214661
Graves Elementary School,Public,PK-5,1700 Graves Rd,Norcross,GA,30093,,7703268000,33.90169,-84.223221,large suburb,1051,13,18.0,166.0,180.0,174.0,183.0,159.0,171.0,,,,,,,,Gwinnett County School District,106134.0,26.0,25.0,36.2,87.0,99.0,1.4,12.3,83.3,1.8,1.2,82,95.0,2.0,US News,https://www.usnews.com/education/k12/georgia/graves-elementary-school-215552
Hopkins Elementary School,Public,PK-5,1315 Dickens Rd Nw,Lilburn,GA,30047,,7705642661,33.9079,-84.1474,large suburb,1117,12,41.0,165.0,184.0,190.0,172.0,191.0,174.0,,,,,,,,Gwinnett County School District,106134.0,30.0,18.0,27.35,90.0,97.0,3.1,6.3,83.6,5.6,1.2,90,96.0,2.0,US News,https://www.usnews.com/education/k12/georgia/hopkins-elementary-school-216484
Lawrenceville Elementary School,Public,PK-5,122 Gwinnett Dr,Lawrenceville,GA,30046,,7709631813,33.9459,-83.9949,large suburb,706,12,45.0,104.0,123.0,87.0,125.0,115.0,107.0,,,,,,,,Gwinnett County School District,106134.0,21.0,20.0,,88.0,96.0,3.7,48.6,38.7,2.8,5.7,59,98.0,1.0,US News,https://www.usnews.com/education/k12/georgia/lawrenceville-elementary-school-218029
Magill Elementary School,Public,PK-5,3900 Brushy Fork Rd,Loganville,GA,30052,,7705541030,33.8391,-83.9419,large suburb,1312,13,34.0,186.0,208.0,224.0,228.0,205.0,227.0,,,,,,,,Gwinnett County School District,106134.0,35.0,33.0,54.79,80.0,92.0,7.5,59.2,26.8,1.8,3.9,99,97.0,2.0,US News,https://www.usnews.com/education/k12/georgia/magill-elementary-school-218654
Meadowcreek Elementary School,Public,PK-5,5025 Georgia Belle Ct,Norcross,GA,30093,,7709315701,33.9216,-84.1663,large suburb,852,11,28.0,145.0,134.0,159.0,130.0,113.0,143.0,,,,,,,,Gwinnett County School District,106134.0,27.0,20.0,31.7,91.0,99.0,1.1,17.3,75.2,2.9,2.8,79,98.0,2.0,US News,https://www.usnews.com/education/k12/georgia/meadowcreek-elementary-school-219154
Minor Elementary School,Public,PK-5,4129 Shady Dr Nw,Lilburn,GA,30047,,7709259543,33.9177,-84.1291,large suburb,886,12,28.0,141.0,140.0,152.0,142.0,135.0,148.0,,,,,,,,Gwinnett County School District,106134.0,31.0,33.0,51.97,88.0,95.0,4.6,19.5,64.8,8.9,1.8,76,96.0,1.0,US News,https://www.usnews.com/education/k12/georgia/minor-elementary-school-219442
Nesbit Elementary School,Public,PK-5,6575 Cherokee Dr,Tucker,GA,30084,,7704142740,33.8761,-84.1991,large suburb,1196,13,45.0,204.0,200.0,193.0,171.0,202.0,181.0,,,,,,,,Gwinnett County School District,106134.0,24.0,20.0,,89.0,98.0,2.3,15.4,78.3,2.5,1.1,95,95.0,2.0,US News,https://www.usnews.com/education/k12/georgia/nesbit-elementary-school-219836
Norcross Elementary School,Public,PK-5,150 Hunt St,Norcross,GA,30071,,7704482188,33.9457,-84.2068,large suburb,773,12,7.0,112.0,142.0,129.0,127.0,135.0,121.0,,,,,,,,Gwinnett County School District,106134.0,33.0,28.0,55.75,89.0,98.0,1.9,15.1,75.8,4.9,2.2,67,100.0,2.0,US News,https://www.usnews.com/education/k12/georgia/norcross-elementary-school-219984
North Metro Academy of Performing Arts,Public,PK-5,5995 Crooked Creek Road,Peachtree Corners,GA,30092,,7709033400,33.963282,-84.236674,large suburb,215,9,0.0,25.0,31.0,41.0,43.0,43.0,32.0,,,,,,,,Gwinnett County School District,106134.0,27.0,27.0,34.75,79.0,96.0,4.2,81.4,7.9,0.5,6.0,23,92.0,1.0,US News,https://www.usnews.com/education/k12/georgia/north-metro-academy-of-performing-arts-245949
Rockbridge Elementary School,Public,PK-5,6066 Rockbridge School Rd,Norcross,GA,30093,,7704489363,33.8996,-84.1948,large suburb,999,12,0.0,146.0,170.0,180.0,179.0,155.0,169.0,,,,,,,,Gwinnett County School District,106134.0,25.0,19.0,,93.0,99.0,1.0,10.8,82.9,4.3,0.9,83,94.0,2.0,US News,https://www.usnews.com/education/k12/georgia/rockbridge-elementary-school-222439
North Gwinnett Middle School,Public,6-8,170 Peachtree Industrial Blvd,Sugar Hill,GA,30518,,6787452300,34.079,-84.0614,large suburb,2242,16,,,,,,,,761.0,761.0,720.0,,,,,Gwinnett County School District,106134.0,77.0,75.0,,25.0,65.0,35.0,11.4,8.2,39.3,5.8,138,98.0,4.0,US News,https://www.usnews.com/education/k12/georgia/north-gwinnett-middle-school-266474
Crews Middle School,Public,6-8,1000 Old Snellville Hwy,Lawrenceville,GA,30044,,7709826940,33.9071,-84.0088,large suburb,1416,17,,,,,,,,444.0,476.0,496.0,,,,,Gwinnett County School District,106134.0,73.0,71.0,,44.0,75.0,24.9,32.5,15.7,20.8,5.6,84,99.0,3.0,US News,https://www.usnews.com/education/k12/georgia/crews-middle-school-261835
Osborne Middle School,Public,6-8,4404 Braselton Hwy,Hoschton,GA,30548,http://www.gwinnett.k12.ga.us/OsborneMS/home.html,7709045400,34.078014,-83.872967,large suburb,1723,16,,,,,,,,577.0,538.0,608.0,,,,,Gwinnett County School District,106134.0,67.0,71.0,,39.0,61.0,39.1,24.1,17.2,14.5,4.6,108,99.0,3.0,US News,https://www.usnews.com/education/k12/georgia/osborne-middle-school-266842
Hull Middle School,Public,6-8,1950 Old Peachtree Rd,Duluth,GA,30097,,7702323200,34.0136,-84.1032,large suburb,1251,15,,,,,,,,437.0,405.0,409.0,,,,,Gwinnett County School District,106134.0,65.0,67.0,,47.0,88.0,12.4,30.2,17.0,34.7,5.3,82,94.0,3.0,US News,https://www.usnews.com/education/k12/georgia/hull-middle-school-263980
Jones Middle School,Public,6-8,3575 Ridge Rd,Buford,GA,30519,,7709045450,34.1033,-83.9372,large suburb,1744,16,,,,,,,,598.0,554.0,592.0,,,,,Gwinnett County School District,106134.0,60.0,62.0,,45.0,72.0,28.4,23.9,21.8,21.0,4.8,107,100.0,2.0,US News,https://www.usnews.com/education/k12/georgia/jones-middle-school-264559
Five Forks Middle School,Public,6-8,3250 River Dr,Lawrenceville,GA,30044,,7709721506,33.8842,-84.0693,large suburb,1257,16,,,,,,,,405.0,429.0,423.0,,,,,Gwinnett County School District,106134.0,58.0,60.0,,51.0,75.0,24.6,29.5,20.1,18.7,6.9,78,99.0,2.0,US News,https://www.usnews.com/education/k12/georgia/five-forks-middle-school-262768
Lanier Middle School,Public,6-8,6482 Suwanee Dam Rd,Sugar Hill,GA,30518,http://www.lanierms.org/index.php,7709458419,34.148298,-84.065636,large suburb,1295,14,,,,,,,,422.0,418.0,455.0,,,,,Gwinnett County School District,106134.0,54.0,60.0,,53.0,65.0,34.9,18.5,30.7,9.4,6.4,93,100.0,3.0,US News,https://www.usnews.com/education/k12/georgia/lanier-middle-school-264956
Bay Creek Middle School,Public,6-8,821 Cooper Rd,Grayson,GA,30017,,6783447570,33.8727,-83.9606,large suburb,1391,17,,,,,,,,423.0,481.0,487.0,,,,,Gwinnett County School District,106134.0,54.0,58.0,,63.0,88.0,12.2,61.1,14.9,6.5,5.1,82,94.0,2.0,US News,https://www.usnews.com/education/k12/georgia/bay-creek-middle-school-260404
Coleman Middle School,Public,6-8,3057 Main St,Duluth,GA,30096,,6784074700,34.00445,-84.142841,large suburb,750,14,,,,,,,,232.0,254.0,264.0,,,,,Gwinnett County School District,106134.0,54.0,57.0,,49.0,82.0,18.1,34.1,24.3,17.6,5.6,55,98.0,1.0,US News,https://www.usnews.com/education/k12/georgia/coleman-middle-school-261620
Couch Middle School,Public,6-8,1777 Grayson Hwy,Grayson,GA,30017,,6784077272,33.90106,-83.967006,large suburb,1101,16,,,,,,,,361.0,371.0,369.0,,,,,Gwinnett County School District,106134.0,51.0,59.0,,60.0,87.0,12.9,48.0,24.3,10.2,4.5,68,95.0,3.0,US News,https://www.usnews.com/education/k12/georgia/couch-middle-school-261763
Trickum Middle School,Public,6-8,130 Killian Hill Rd Sw,Lilburn,GA,30047,http://www.gwinnett.k12.ga.us/TrickumMS/home.html,7709212705,33.886714,-84.119753,large suburb,2211,16,,,,,,,,739.0,707.0,765.0,,,,,Gwinnett County School District,106134.0,50.0,54.0,,62.0,80.0,20.5,22.3,29.8,22.1,5.1,137,98.0,3.0,US News,https://www.usnews.com/education/k12/georgia/trickum-middle-school-269263
Mcconnell Middle School,Public,6-8,550 Ozora Rd,Loganville,GA,30052,,7705541000,33.8952,-83.9142,large suburb,2058,16,,,,,,,,668.0,708.0,682.0,,,,,Gwinnett County School District,106134.0,52.0,51.0,,60.0,84.0,16.0,55.6,19.5,3.1,5.4,132,95.0,4.0,US News,https://www.usnews.com/education/k12/georgia/mcconnell-middle-school-265732
Northbrook Middle School,Public,6-8,1221 Northbrook Pkwy,Suwanee,GA,30024,,6784077140,34.00673,-84.068731,large suburb,932,16,,,,,,,,331.0,308.0,293.0,,,,,Gwinnett County School District,106134.0,48.0,52.0,,68.0,88.0,11.7,29.5,36.1,17.9,4.6,60,96.0,2.0,US News,https://www.usnews.com/education/k12/georgia/northbrook-middle-school-266545
Dacula Middle School,Public,6-8,137 Dacula Rd,Dacula,GA,30019,,7709631110,33.9913,-83.8947,large suburb,1813,16,,,,,,,,585.0,618.0,610.0,,,,,Gwinnett County School District,106134.0,42.0,50.0,,68.0,84.0,15.9,47.9,25.6,5.5,4.9,110,97.0,3.0,US News,https://www.usnews.com/education/k12/georgia/dacula-middle-school-261906
Creekland Middle School,Public,6-8,170 Russell Rd,Lawrenceville,GA,30043,,7703384700,34.0011,-84.008,large suburb,1718,15,,,,,,,,523.0,586.0,609.0,,,,,Gwinnett County School District,106134.0,44.0,49.0,,64.0,84.0,15.8,32.9,33.4,10.5,7.0,115,92.0,2.0,US News,https://www.usnews.com/education/k12/georgia/creekland-middle-school-261800
Pinckneyville Middle School,Public,6-8,5440 W Jones Bridge Rd,Peachtree Corners,GA,30092,,7702630860,33.98466,-84.228941,large suburb,1136,13,,,,,,,,375.0,396.0,365.0,,,,,Gwinnett County School District,106134.0,42.0,48.0,,58.0,74.0,25.9,28.9,35.7,5.5,3.9,89,95.0,3.0,US News,https://www.usnews.com/education/k12/georgia/pinckneyville-middle-school-267126
Sweetwater Middle School,Public,6-8,3500 Cruse Rd,Lawrenceville,GA,30044,,7709234131,33.9265,-84.1076,large suburb,1441,14,,,,,,,,459.0,476.0,506.0,,,,,Gwinnett County School District,106134.0,32.0,37.0,,87.0,97.0,2.9,18.5,70.2,6.2,2.0,104,94.0,3.0,US News,https://www.usnews.com/education/k12/georgia/sweetwater-middle-school-268940
Duluth Middle School,Public,6-8,3200 Pleasant Hill Rd,Duluth,GA,30096,,7704763372,33.987,-84.1584,large suburb,1280,13,,,,,,,,414.0,419.0,447.0,,,,,Gwinnett County School District,106134.0,35.0,37.0,,79.0,92.0,7.8,22.7,54.2,11.4,3.7,102,94.0,2.0,US News,https://www.usnews.com/education/k12/georgia/duluth-middle-school-262219
Richards Middle School,Public,6-8,3555 Sugarloaf Pkwy,Lawrenceville,GA,30044,,7709957133,33.9278,-84.0202,large suburb,2026,15,,,,,,,,709.0,663.0,654.0,,,,,Gwinnett County School District,106134.0,29.0,37.0,,85.0,95.0,5.1,28.7,56.4,7.5,2.1,136,91.0,5.0,US News,https://www.usnews.com/education/k12/georgia/richards-middle-school-267567
Snellville Middle School,Public,6-8,3155 Pate Rd,Snellville,GA,30078,,7709721530,33.8341,-84.0031,large suburb,876,14,,,,,,,,271.0,277.0,328.0,,,,,Gwinnett County School District,106134.0,26.0,40.0,,81.0,96.0,4.3,65.4,24.2,2.9,3.0,62,81.0,3.0,US News,https://www.usnews.com/education/k12/georgia/snellville-middle-school-268406
Berkmar Middle School,Public,6-8,4355 Lawrenceville Hwy Nw,Lilburn,GA,30047,,7706382300,33.9038,-84.1285,large suburb,1065,13,,,,,,,,367.0,364.0,334.0,,,,,Gwinnett County School District,106134.0,26.0,34.0,,92.0,97.0,3.0,14.7,73.3,7.2,1.6,81,88.0,3.0,US News,https://www.usnews.com/education/k12/georgia/berkmar-middle-school-260534
Jordan Middle School,Public,6-8,8 Village Way,Lawrenceville,GA,30046,,7708226500,33.961894,-83.969502,large suburb,774,13,,,,,,,,267.0,250.0,257.0,,,,,Gwinnett County School District,106134.0,28.0,32.0,,89.0,92.0,8.1,42.2,42.9,3.0,3.6,60,79.0,2.0,US News,https://www.usnews.com/education/k12/georgia/jordan-middle-school-264567
Moore Middle School,Public,6-8,1221 Lawrenceville Hwy,Lawrenceville,GA,30046,,6782267100,33.9395,-84.0215,large suburb,936,14,,,,,,,,292.0,307.0,337.0,,,,,Gwinnett County School District,106134.0,29.0,35.0,,86.0,90.0,9.6,36.2,44.2,5.8,4.0,67,92.0,3.0,US News,https://www.usnews.com/education/k12/georgia/moore-middle-school-266093
Summerour Middle School,Public,6-8,321 Price Place Pl Nw,Norcross,GA,30071,,7704483045,33.941018,-84.202165,large suburb,1411,12,,,,,,,,436.0,465.0,510.0,,,,,Gwinnett County School District,106134.0,25.0,32.0,,90.0,98.0,2.1,14.7,76.7,4.8,1.3,119,92.0,3.0,US News,https://www.usnews.com/education/k12/georgia/summerour-middle-school-268870
Grace Snell Middle School,Public,6-8,3800 Brushy Fork Rd,Loganville,GA,30052,,7705547750,33.8419,-83.9441,large suburb,1258,15,,,,,,,,410.0,447.0,401.0,,,,,Gwinnett County School District,106134.0,25.0,34.0,,78.0,95.0,5.5,67.2,21.2,1.9,3.4,83,84.0,3.0,US News,https://www.usnews.com/education/k12/georgia/grace-snell-middle-school-263229
Gwinnett Intervention Education Center (Give) West,Public,6-12,5550 Peachtree Industrial Blvd,Norcross,GA,30071,,7702465300,33.95649,-84.214236,large suburb,222,7,,,,,,,,1.0,13.0,39.0,,,,,Gwinnett County School District,106134.0,3.0,12.0,,79.0,94.0,5.9,26.6,60.8,3.2,3.6,32,94.0,3.0,US News,https://www.usnews.com/education/k12/georgia/gwinnett-intervention-education-center-give-west-5956
Gwinnett Intervention Education (Give) Center East,Public,6-12,723 Hi Hope Rd,Lawrenceville,GA,30043,,7703384855,33.986333,-83.971812,large suburb,332,8,,,,,,,,1.0,29.0,44.0,,,,,Gwinnett County School District,106134.0,3.0,12.0,,76.0,92.0,8.1,65.4,17.5,3.3,5.7,42,100.0,3.0,US News,https://www.usnews.com/education/k12/georgia/gwinnett-intervention-education-give-center-east-5938
International Transition Center,Public,6-12,1335 Old Norcross Rd,Lawrenceville,GA,30046,,7703168944,33.963667,-84.004324,large suburb,632,12,,,,,,,,0.0,0.0,97.0,,,,,Gwinnett County School District,106134.0,1.0,3.0,,91.0,100.0,0.5,1.3,97.3,0.9,,52,91.0,2.0,US News,https://www.usnews.com/education/k12/georgia/international-transition-center-200321
Lilburn Middle School,Public,6-8,4994 Lawrenceville Hwy Nw,Lilburn,GA,30047,,7709211776,33.8876,-84.1446,large suburb,1609,13,,,,,,,,534.0,549.0,526.0,,,,,Gwinnett County School District,106134.0,24.0,27.0,,93.0,98.0,1.9,9.3,80.5,7.1,0.9,126,85.0,3.0,US News,https://www.usnews.com/education/k12/georgia/lilburn-middle-school-265148
Radloff Middle School,Public,6-8,3939 Shackleford Rd,Duluth,GA,30096,,6782453400,33.9459,-84.1397,large suburb,1304,12,,,,,,,,467.0,400.0,437.0,,,,,Gwinnett County School District,106134.0,20.0,31.0,,91.0,98.0,2.1,17.2,75.4,4.0,1.2,107,89.0,3.0,US News,https://www.usnews.com/education/k12/georgia/radloff-middle-school-267409
Shiloh Middle School,Public,6-8,4285 Shiloh Rd,Snellville,GA,30039,,7709723224,33.8258,-84.0725,large suburb,1571,13,,,,,,,,521.0,543.0,507.0,,,,,Gwinnett County School District,106134.0,21.0,37.0,,83.0,96.0,4.4,59.1,28.4,3.6,4.3,118,88.0,3.0,US News,https://www.usnews.com/education/k12/georgia/shiloh-middle-school-268280
Oakland Meadow School,Public,PK-12,590 Old Snellville Hwy,Lawrenceville,GA,30046,,7705136800,33.925915,-83.99989,large suburb,54,1,3.0,1.0,1.0,5.0,4.0,7.0,0.0,2.0,1.0,3.0,,,,,Gwinnett County School District,106134.0,25.0,75.0,,67.0,87.0,13.0,29.6,46.3,9.3,,68,99.0,,US News,https://www.usnews.com/education/k12/georgia/oakland-meadow-school-138565
Twin Rivers Middle School,Public,6-8,2300 Braselton Hwy,Buford,GA,30519,,6784077550,34.04576,-83.946516,large suburb,1627,15,,,,,,,,535.0,561.0,531.0,,,,,Gwinnett County School District,106134.0,55.0,61.0,,60.0,79.0,21.5,31.3,32.0,10.9,4.2,107,94.0,4.0,US News,https://www.usnews.com/education/k12/georgia/twin-rivers-middle-school-269336
"Gwinnett School of Mathematics, Science and Technology",Public,9-12,970 Mcelvaney Ln,Lawrenceville,Georgia,30044,,(678) 518-6700,33.952818,-84.060288,Large Suburb,1275,16,,,,,,,,,,,368.0,334.0,314.0,259.0,Gwinnett County School District,,100.0,97.0,99.99,39.9,86.1,13.9,24.6,9.8,47.8,3.7,78,,,US News,https://www.usnews.com/education/best-high-schools/georgia/districts/gwinnett-county-school-district/gwinnett-school-of-mathematics-science-and-technology-5955
North Gwinnett High School,Public,9-12,20 Level Creek Rd,Suwanee,Georgia,30024,,(770) 945-9558,34.0855,-84.0716,Large Suburb,3067,19,,,,,,,,,,,745.0,831.0,765.0,726.0,Gwinnett County School District,,50.0,65.0,95.37,22.0,60.9,39.1,13.7,10.0,31.5,5.7,166,,,US News,https://www.usnews.com/education/best-high-schools/georgia/districts/gwinnett-county-school-district/north-gwinnett-high-school-5942
Paul Duke Stem High School,Public,9-12,5850 Peachtree Industrial Blvd,Norcross,Georgia,30071,,(470) 323-3600,33.95221,-84.223131,Large Suburb,1386,19,,,,,,,,,,,387.0,366.0,318.0,315.0,Gwinnett County School District,,30.0,62.0,87.26,63.9,84.2,15.8,22.6,48.4,9.7,3.2,75,,,US News,https://www.usnews.com/education/best-high-schools/georgia/districts/gwinnett-county-school-district/paul-duke-stem-high-school-409382
Brookwood High School,Public,9-12,1255 Dogwood Rd,Snellville,Georgia,30078,,(770) 972-7642,33.8837,-84.04,Large Suburb,3880,19,,,,,,,,,,,979.0,1030.0,959.0,912.0,Gwinnett County School District,,41.0,55.0,87.96000000000001,45.0,74.0,26.0,31.6,18.5,19.0,4.6,210,,,US News,https://www.usnews.com/education/best-high-schools/georgia/districts/gwinnett-county-school-district/brookwood-high-school-5948
Mill Creek High School,Public,9-12,4400 Braselton Hwy,Hoschton,Georgia,30548,http://www.millcreekhighschool.org/index.php,(678) 714-5850,34.0791,-83.8783,Large Suburb,2745,17,,,,,,,,,,,657.0,711.0,673.0,704.0,Gwinnett County School District,,45.0,63.0,91.2,33.6,55.0,45.0,23.1,15.2,11.4,5.1,163,,,US News,https://www.usnews.com/education/best-high-schools/georgia/districts/gwinnett-county-school-district/mill-creek-high-school-5954
Peachtree Ridge High School,Public,9-12,1555 Old Peachtree Rd Nw,Suwanee,Georgia,30024,,(678) 957-3100,34.0131,-84.0873,Large Suburb,3304,18,,,,,,,,,,,830.0,789.0,840.0,845.0,Gwinnett County School District,,31.0,49.0,77.77,51.7,88.0,12.0,31.1,26.0,27.0,3.8,182,,,US News,https://www.usnews.com/education/best-high-schools/georgia/districts/gwinnett-county-school-district/peachtree-ridge-high-school-5953
Archer High School,Public,9-12,2255 New Hope Rd,Lawrenceville,Georgia,30045,,(678) 407-7700,33.916231,-83.893516,Large Suburb,3073,19,,,,,,,,,,,832.0,778.0,831.0,632.0,Gwinnett County School District,,46.0,49.0,80.09,52.6,83.3,16.7,54.6,19.9,3.6,4.9,160,,,US News,https://www.usnews.com/education/best-high-schools/georgia/districts/gwinnett-county-school-district/archer-high-school-5957
Parkview High School,Public,9-12,998 Cole Rd Sw,Lilburn,Georgia,30047,,(770) 921-2874,33.8595,-84.1139,Large Suburb,3279,18,,,,,,,,,,,849.0,897.0,778.0,755.0,Gwinnett County School District,,32.0,44.0,77.08,58.6,81.0,19.0,27.4,28.8,20.7,3.8,178,,,US News,https://www.usnews.com/education/best-high-schools/georgia/districts/gwinnett-county-school-district/parkview-high-school-5940
Lanier High School,Public,9-12,918 Buford Hwy,Sugar Hill,Georgia,30518,,(678) 765-4040,34.086,-84.0322,Large Suburb,1861,16,,,,,,,,,,,508.0,470.0,446.0,437.0,Gwinnett County School District,,32.0,49.0,85.64,45.8,64.7,35.3,20.6,29.7,9.2,4.7,116,,,US News,https://www.usnews.com/education/best-high-schools/georgia/districts/gwinnett-county-school-district/lanier-high-school-91591
Mcclure Health Science High School,Public,9-12,3921 Club Pl,Duluth,Georgia,30096,,(770) 806-7900,33.943411,-84.13674,Large Suburb,1171,16,,,,,,,,,,,362.0,302.0,257.0,250.0,Gwinnett County School District,,20.0,32.0,50.92,88.4,97.8,2.2,16.0,70.1,10.2,1.3,73,,,US News,https://www.usnews.com/education/best-high-schools/georgia/districts/gwinnett-county-school-district/mcclure-health-science-high-school-409383
Mountain View High School,Public,9-12,2351 Sunny Hill Rd,Lawrenceville,Georgia,30043,,(678) 407-7600,34.0519,-83.9515,Large Suburb,2285,17,,,,,,,,,,,635.0,541.0,586.0,523.0,Gwinnett County School District,,34.0,46.0,76.15,51.5,74.1,25.9,29.8,29.8,10.6,3.6,134,,,US News,https://www.usnews.com/education/best-high-schools/georgia/districts/gwinnett-county-school-district/mountain-view-high-school-5958
Seckinger High School,Public,9-12,3655 Sardis Church Road,Buford,Georgia,30519,,(678) 288-0800,34.078935,-83.911771,Large Suburb,2008,19,,,,,,,,,,,564.0,618.0,486.0,340.0,Gwinnett County School District,,37.0,43.0,81.94,46.3,72.3,27.7,28.4,21.5,17.5,4.4,108,,,US News,https://www.usnews.com/education/best-high-schools/georgia/districts/gwinnett-county-school-district/seckinger-high-school-432012
Grayson High School,Public,9-12,50 Hope Hollow Rd,Loganville,Georgia,30052,,(770) 554-1071,33.8686,-83.9239,Large Suburb,3480,18,,,,,,,,,,,996.0,887.0,830.0,767.0,Gwinnett County School District,,19.0,49.0,69.67,54.4,88.4,11.6,57.9,18.8,6.2,5.0,199,,,US News,https://www.usnews.com/education/best-high-schools/georgia/districts/gwinnett-county-school-district/grayson-high-school-5952
Collins Hill High School,Public,9-12,50 Taylor Rd,Suwanee,Georgia,30024,,(770) 682-4100,34.0163,-84.0207,Large Suburb,2605,17,,,,,,,,,,,646.0,759.0,566.0,634.0,Gwinnett County School District,,17.0,44.0,65.74,57.1,84.6,15.4,35.3,33.2,10.6,5.3,155,,,US News,https://www.usnews.com/education/best-high-schools/georgia/districts/gwinnett-county-school-district/collins-hill-high-school-5939
Dacula High School,Public,9-12,123 Broad St,Dacula,Georgia,30019,,(770) 963-6664,33.9908,-83.9008,Large Suburb,2534,18,,,,,,,,,,,704.0,665.0,608.0,557.0,Gwinnett County School District,,29.0,41.0,67.82000000000001,60.8,84.6,15.4,48.9,27.2,4.3,3.9,142,,,US News,https://www.usnews.com/education/best-high-schools/georgia/districts/gwinnett-county-school-district/dacula-high-school-5943
Duluth High School,Public,9-12,3737 Brock Rd,Duluth,Georgia,30096,,(770) 476-5206,34.01,-84.1438,Large Suburb,2666,16,,,,,,,,,,,636.0,720.0,668.0,642.0,Gwinnett County School District,,24.0,41.0,57.63,65.9,88.3,11.7,23.8,48.3,11.7,4.2,162,,,US News,https://www.usnews.com/education/best-high-schools/georgia/districts/gwinnett-county-school-district/duluth-high-school-5941
Discovery High School,Public,9-12,1335 Old Norcross Rd,Lawrenceville,Georgia,30046,,(678) 226-4250,33.955305,-84.034354,Large Suburb,2730,16,,,,,,,,,,,652.0,721.0,686.0,671.0,Gwinnett County School District,,17.0,27.0,43.98,77.3,95.5,4.5,28.9,56.6,7.9,1.9,175,,,US News,https://www.usnews.com/education/best-high-schools/georgia/districts/gwinnett-county-school-district/discovery-high-school-153362
Central Gwinnett High School,Public,9-12,564 W Crogan St,Lawrenceville,Georgia,30046,,(770) 963-8041,33.9488,-84.0003,Large Suburb,2444,15,,,,,,,,,,,696.0,694.0,574.0,480.0,Gwinnett County School District,,17.0,34.0,47.45,74.4,90.3,9.7,42.6,38.8,4.5,4.1,168,,,US News,https://www.usnews.com/education/best-high-schools/georgia/districts/gwinnett-county-school-district/central-gwinnett-high-school-5944
Norcross High School,Public,9-12,5300 Spalding Dr,Norcross,Georgia,30092,,(770) 448-3674,33.967,-84.212,Large Suburb,2395,14,,,,,,,,,,,608.0,650.0,607.0,530.0,Gwinnett County School District,,13.0,30.0,37.26,74.5,87.8,12.2,24.5,56.4,4.0,2.9,171,,,US News,https://www.usnews.com/education/best-high-schools/georgia/districts/gwinnett-county-school-district/norcross-high-school-5945
Shiloh High School,Public,9-12,4210 Shiloh Rd,Snellville,Georgia,30039,,(770) 972-8471,33.8236,-84.0697,Large Suburb,2200,16,,,,,,,,,,,684.0,568.0,515.0,433.0,Gwinnett County School District,,22.0,27.0,35.64,74.5,96.5,3.5,63.5,25.8,3.7,3.2,137,,,US News,https://www.usnews.com/education/best-high-schools/georgia/districts/gwinnett-county-school-district/shiloh-high-school-5949
South Gwinnett High School,Public,9-12,2288 Main St E,Snellville,Georgia,30078,,(770) 972-4840,33.8539,-84.007,Large Suburb,2588,16,,,,,,,,,,,623.0,665.0,616.0,684.0,Gwinnett County School District,,19.0,29.0,39.58,73.9,96.6,3.4,70.2,20.9,2.1,3.0,158,,,US News,https://www.usnews.com/education/best-high-schools/georgia/districts/gwinnett-county-school-district/south-gwinnett-high-school-5946
Gwinnett Online Campus,Public,PK-12,713 Hi Hope Rd,Lawrenceville,Georgia,30043,,(770) 326-8082,33.984154,-83.97177,Large Suburb,1125,14,,,,,,,,,,,239.0,292.0,261.0,333.0,Gwinnett County School District,,30.0,47.0,73.84,47.9,75.4,24.6,36.9,25.4,7.5,5.2,134,,,US News,https://www.usnews.com/education/best-high-schools/georgia/districts/gwinnett-county-school-district/gwinnett-online-campus-141948
Berkmar High School,Public,9-12,405 Pleasant Hill Rd Nw,Lilburn,Georgia,30047,http://www.gcpsk12.org/BerkmarHS,(770) 921-3636,33.907,-84.1141,Large Suburb,3089,16,,,,,,,,,,,904.0,931.0,685.0,569.0,Gwinnett County School District,,9.0,26.0,24.53,81.3,97.9,2.1,17.9,72.3,6.6,1.0,199,,,US News,https://www.usnews.com/education/best-high-schools/georgia/districts/gwinnett-county-school-district/berkmar-high-school-5947
Gwinnett Intervention Education Center (Give) West,Public,6-12,5550 Peachtree Industrial Blvd,Norcross,Georgia,30071,,(770) 246-5300,33.95649,-84.214236,Large Suburb,169,7,,,,,,,,,,,53.0,66.0,32.0,18.0,Gwinnett County School District,,6.0,5.0,1.85,79.3,94.1,5.9,26.6,60.8,3.2,3.6,33,,,US News,https://www.usnews.com/education/best-high-schools/georgia/districts/gwinnett-county-school-district/gwinnett-intervention-education-center-give-west-5956
Meadowcreek High School,Public,9-12,4455 Steve Reynolds Blvd,Norcross,Georgia,30093,,(770) 381-9680,33.9228,-84.1484,Large Suburb,2640,14,,,,,,,,,,,620.0,790.0,643.0,587.0,Gwinnett County School District,,6.0,16.0,13.65,86.1,98.4,1.6,16.2,76.3,4.7,1.1,194,,,US News,https://www.usnews.com/education/best-high-schools/georgia/districts/gwinnett-county-school-district/meadowcreek-high-school-5950
Gwinnett Intervention Education (Give) Center East,Public,6-12,723 Hi Hope Rd,Lawrenceville,Georgia,30043,,(770) 338-4855,33.986333,-83.971812,Large Suburb,258,8,,,,,,,,,,,103.0,91.0,46.0,18.0,Gwinnett County School District,,,,,75.9,91.9,8.1,65.4,17.5,3.3,5.7,42,,,US News,https://www.usnews.com/education/best-high-schools/georgia/districts/gwinnett-county-school-district/gwinnett-intervention-education-give-center-east-5938
Oakland Meadow School,Public,PK-12,590 Old Snellville Hwy,Lawrenceville,Georgia,30046,,(770) 513-6800,33.925915,-83.99989,Large Suburb,27,1,,,,,,,,,,,1.0,2.0,4.0,20.0,Gwinnett County School District,,,,,66.7,87.0,13.0,29.6,46.3,9.3,0.0,68,,,US News,https://www.usnews.com/education/best-high-schools/georgia/districts/gwinnett-county-school-district/oakland-meadow-school-138565
Phoenix High School,Public,9-12,501 W Pike St,Lawrenceville,Georgia,30046,,(770) 513-6862,33.9633,-84.005,Large Suburb,873,23,,,,,,,,,,,60.0,195.0,266.0,352.0,Gwinnett County School District,,,,,51.7,93.5,6.5,27.5,59.6,3.1,3.0,38,,,US News,https://www.usnews.com/education/best-high-schools/georgia/districts/gwinnett-county-school-district/phoenix-high-school-5951
